% (x/y/z-ecef=WGS84,Q=1:fix,2:float,3:sbas,4:dgps,5:single,6:ppp,ns=# of satellites)
%  GPST                      x-ecef(m)      y-ecef(m)      z-ecef(m)   Q  ns   sdx(m)   sdy(m)   sdz(m)  sdxy(m)  sdyz(m)  sdzx(m) age(s)  ratio
2021/06/01 04:18:12.000  -1641789.4974  -3663043.8126   4941330.2937   1  27   0.0099   0.0099   0.0100   0.0000   0.0000   0.0000   0.00    0.0
2021/06/01 04:18:13.000  -1641789.4985  -3663043.8149   4941330.2968   1  27   0.0099   0.0099   0.0100   0.0000   0.0000   0.0000   0.00    0.0
2021/06/01 04:18:14.000  -1641789.4972  -3663043.8121   4941330.2929   1  27   0.0099   0.0099   0.0100   0.0000   0.0000   0.0000   0.00    0.0
2021/06/01 04:18:15.000  -1641789.4977  -3663043.8132   4941330.2945   1  27   0.0099   0.0099   0.0100   0.0000   0.0000   0.0000   0.00    0.0
2021/06/01 04:18:16.000  -1641789.4972  -3663043.8121   4941330.2929   1  27   0.0099   0.0099   0.0100   0.0000   0.0000   0.0000   0.00    0.0
2021/06/01 04:18:17.000  -1641789.4977  -3663043.8132   4941330.2945   1  27   0.0099   0.0099   0.0100   0.0000   0.0000   0.0000   0.00    0.0
2021/06/01 04:18:18.000  -1641789.4972  -3663043.8121   4941330.2929   1  27   0.0099   0.0099   0.0100   0.0000   0.0000   0.0000   0.00    0.0
2021/06/01 04:18:19.000  -1641789.4977  -3663043.8132   4941330.2945   1  27   0.0099   0.0099   0.0100   0.0000   0.0000   0.0000   0.00    0.0
2021/06/01 04:18:20.000  -1641789.4980  -3663043.8138   4941330.2952   1  27   0.0099   0.0099   0.0100   0.0000   0.0000   0.0000   0.00    0.0
2021/06/01 04:18:21.000  -1641789.4977  -3663043.8132   4941330.2945   1  27   0.0099   0.0099   0.0100   0.0000   0.0000   0.0000   0.00    0.0
2021/06/01 04:18:22.000  -1641789.4980  -3663043.8138   4941330.2952   1  27   0.0099   0.0099   0.0100   0.0000   0.0000   0.0000   0.00    0.0
2021/06/01 04:18:23.000  -1641789.4982  -3663043.8144   4941330.2960   1  27   0.0099   0.0099   0.0100   0.0000   0.0000   0.0000   0.00    0.0
2021/06/01 04:18:24.000  -1641789.4969  -3663043.8115   4941330.2921   1  27   0.0099   0.0099   0.0100   0.0000   0.0000   0.0000   0.00    0.0
2021/06/01 04:18:25.000  -1641789.4977  -3663043.8132   4941330.2945   1  27   0.0099   0.0099   0.0100   0.0000   0.0000   0.0000   0.00    0.0
2021/06/01 04:18:26.000  -1641789.4972  -3663043.8121   4941330.2929   1  27   0.0099   0.0099   0.0100   0.0000   0.0000   0.0000   0.00    0.0
2021/06/01 04:18:27.000  -1641789.4980  -3663043.8138   4941330.2952   1  27   0.0099   0.0099   0.0100   0.0000   0.0000   0.0000   0.00    0.0
2021/06/01 04:18:28.000  -1641789.4982  -3663043.8144   4941330.2960   1  27   0.0099   0.0099   0.0100   0.0000   0.0000   0.0000   0.00    0.0
2021/06/01 04:18:29.000  -1641789.4972  -3663043.8121   4941330.2929   1  27   0.0099   0.0099   0.0100   0.0000   0.0000   0.0000   0.00    0.0
2021/06/01 04:18:30.000  -1641789.4982  -3663043.8144   4941330.2960   1  27   0.0099   0.0099   0.0100   0.0000   0.0000   0.0000   0.00    0.0
2021/06/01 04:18:31.000  -1641789.4995  -3663043.8172   4941330.2999   1  27   0.0099   0.0099   0.0100   0.0000   0.0000   0.0000   0.00    0.0
2021/06/01 04:18:32.000  -1641789.4990  -3663043.8161   4941330.2984   1  27   0.0099   0.0099   0.0100   0.0000   0.0000   0.0000   0.00    0.0
2021/06/01 04:18:33.000  -1641789.4969  -3663043.8115   4941330.2921   1  27   0.0099   0.0099   0.0100   0.0000   0.0000   0.0000   0.00    0.0
2021/06/01 04:18:34.000  -1641789.4967  -3663043.8109   4941330.2913   1  27   0.0099   0.0099   0.0100   0.0000   0.0000   0.0000   0.00    0.0
2021/06/01 04:18:35.000  -1641789.5020  -3663043.8058   4941330.2882   1  27   0.0099   0.0099   0.0100   0.0000   0.0000   0.0000   0.00    0.0
2021/06/01 04:18:36.000  -1641789.5023  -3663043.8063   4941330.2890   1  27   0.0099   0.0099   0.0100   0.0000   0.0000   0.0000   0.00    0.0
2021/06/01 04:18:37.000  -1641789.5023  -3663043.8063   4941330.2890   1  27   0.0099   0.0099   0.0100   0.0000   0.0000   0.0000   0.00    0.0
2021/06/01 04:18:38.000  -1641789.5028  -3663043.8075   4941330.2906   1  27   0.0099   0.0099   0.0100   0.0000   0.0000   0.0000   0.00    0.0
2021/06/01 04:18:39.000  -1641789.5043  -3663043.8109   4941330.2952   1  27   0.0099   0.0099   0.0100   0.0000   0.0000   0.0000   0.00    0.0
2021/06/01 04:18:40.000  -1641789.5036  -3663043.8092   4941330.2929   1  27   0.0099   0.0099   0.0100   0.0000   0.0000   0.0000   0.00    0.0
2021/06/01 04:18:41.000  -1641789.4982  -3663043.8144   4941330.2960   1  27   0.0099   0.0099   0.0100   0.0000   0.0000   0.0000   0.00    0.0
2021/06/01 04:18:42.000  -1641789.5043  -3663043.8109   4941330.2952   1  27   0.0099   0.0099   0.0100   0.0000   0.0000   0.0000   0.00    0.0
2021/06/01 04:18:43.000  -1641789.4985  -3663043.8149   4941330.2968   1  27   0.0099   0.0099   0.0100   0.0000   0.0000   0.0000   0.00    0.0
2021/06/01 04:18:44.000  -1641789.4972  -3663043.8121   4941330.2929   1  27   0.0099   0.0099   0.0100   0.0000   0.0000   0.0000   0.00    0.0
2021/06/01 04:18:45.000  -1641789.4972  -3663043.8121   4941330.2929   1  27   0.0099   0.0099   0.0100   0.0000   0.0000   0.0000   0.00    0.0
2021/06/01 04:18:46.000  -1641789.5041  -3663043.8104   4941330.2945   1  27   0.0099   0.0099   0.0100   0.0000   0.0000   0.0000   0.00    0.0
2021/06/01 04:18:47.000  -1641789.5038  -3663043.8098   4941330.2937   1  27   0.0099   0.0099   0.0100   0.0000   0.0000   0.0000   0.00    0.0
2021/06/01 04:18:48.000  -1641789.5036  -3663043.8092   4941330.2929   1  27   0.0099   0.0099   0.0100   0.0000   0.0000   0.0000   0.00    0.0
2021/06/01 04:18:49.000  -1641789.5066  -3663043.8160   4941330.2844   1  27   0.0099   0.0099   0.0100   0.0000   0.0000   0.0000   0.00    0.0
2021/06/01 04:18:50.000  -1641789.5049  -3663043.8121   4941330.2968   1  27   0.0099   0.0099   0.0100   0.0000   0.0000   0.0000   0.00    0.0
2021/06/01 04:18:51.000  -1641789.4980  -3663043.8138   4941330.2952   1  27   0.0099   0.0099   0.0100   0.0000   0.0000   0.0000   0.00    0.0
2021/06/01 04:18:52.000  -1641789.4985  -3663043.8149   4941330.2968   1  27   0.0099   0.0099   0.0100   0.0000   0.0000   0.0000   0.00    0.0
2021/06/01 04:18:53.000  -1641789.4990  -3663043.8161   4941330.2984   1  27   0.0099   0.0099   0.0100   0.0000   0.0000   0.0000   0.00    0.0
2021/06/01 04:18:54.000  -1641789.4982  -3663043.8144   4941330.2960   1  27   0.0099   0.0099   0.0100   0.0000   0.0000   0.0000   0.00    0.0
2021/06/01 04:18:55.000  -1641789.4982  -3663043.8144   4941330.2960   1  27   0.0099   0.0099   0.0100   0.0000   0.0000   0.0000   0.00    0.0
2021/06/01 04:18:56.000  -1641789.5046  -3663043.8115   4941330.2960   1  27   0.0099   0.0099   0.0100   0.0000   0.0000   0.0000   0.00    0.0
2021/06/01 04:18:57.000  -1641789.5076  -3663043.8183   4941330.2875   1  27   0.0099   0.0099   0.0100   0.0000   0.0000   0.0000   0.00    0.0
2021/06/01 04:18:58.000  -1641789.5061  -3663043.8148   4941330.2828   1  27   0.0099   0.0099   0.0100   0.0000   0.0000   0.0000   0.00    0.0
2021/06/01 04:18:59.000  -1641789.5071  -3663043.8171   4941330.2859   1  27   0.0099   0.0099   0.0100   0.0000   0.0000   0.0000   0.00    0.0
2021/06/01 04:19:00.000  -1641789.5033  -3663043.8086   4941330.2921   1  27   0.0099   0.0099   0.0100   0.0000   0.0000   0.0000   0.00    0.0
2021/06/01 04:19:01.000  -1641789.5046  -3663043.8115   4941330.2960   1  27   0.0099   0.0099   0.0100   0.0000   0.0000   0.0000   0.00    0.0
2021/06/01 04:19:02.000  -1641789.4992  -3663043.8167   4941330.2991   1  27   0.0099   0.0099   0.0100   0.0000   0.0000   0.0000   0.00    0.0
2021/06/01 04:19:03.000  -1641789.5000  -3663043.8184   4941330.3015   1  27   0.0099   0.0099   0.0100   0.0000   0.0000   0.0000   0.00    0.0
2021/06/01 04:19:04.000  -1641789.5003  -3663043.8189   4941330.3022   1  27   0.0099   0.0099   0.0100   0.0000   0.0000   0.0000   0.00    0.0
2021/06/01 04:19:05.000  -1641789.4997  -3663043.8178   4941330.3007   1  27   0.0099   0.0099   0.0100   0.0000   0.0000   0.0000   0.00    0.0
2021/06/01 04:19:06.000  -1641789.5000  -3663043.8184   4941330.3015   1  27   0.0099   0.0099   0.0100   0.0000   0.0000   0.0000   0.00    0.0
2021/06/01 04:19:07.000  -1641789.5049  -3663043.8121   4941330.2968   1  27   0.0099   0.0099   0.0100   0.0000   0.0000   0.0000   0.00    0.0
2021/06/01 04:19:08.000  -1641789.5031  -3663043.8081   4941330.2913   1  27   0.0099   0.0099   0.0100   0.0000   0.0000   0.0000   0.00    0.0
2021/06/01 04:19:09.000  -1641789.5038  -3663043.8098   4941330.2937   1  27   0.0099   0.0099   0.0100   0.0000   0.0000   0.0000   0.00    0.0
2021/06/01 04:19:10.000  -1641789.5061  -3663043.8149   4941330.3007   1  27   0.0099   0.0099   0.0100   0.0000   0.0000   0.0000   0.00    0.0
2021/06/01 04:19:11.000  -1641789.5059  -3663043.8144   4941330.2999   1  27   0.0099   0.0099   0.0100   0.0000   0.0000   0.0000   0.00    0.0
2021/06/01 04:19:12.000  -1641789.5013  -3663043.8212   4941330.3054   1  27   0.0099   0.0099   0.0100   0.0000   0.0000   0.0000   0.00    0.0
2021/06/01 04:19:13.000  -1641789.4992  -3663043.8167   4941330.2991   1  27   0.0099   0.0099   0.0100   0.0000   0.0000   0.0000   0.00    0.0
2021/06/01 04:19:14.000  -1641789.4997  -3663043.8178   4941330.3007   1  27   0.0099   0.0099   0.0100   0.0000   0.0000   0.0000   0.00    0.0
2021/06/01 04:19:15.000  -1641789.4997  -3663043.8178   4941330.3007   1  27   0.0099   0.0099   0.0100   0.0000   0.0000   0.0000   0.00    0.0
2021/06/01 04:19:16.000  -1641789.5000  -3663043.8184   4941330.3015   1  27   0.0099   0.0099   0.0100   0.0000   0.0000   0.0000   0.00    0.0
2021/06/01 04:19:17.000  -1641789.4995  -3663043.8172   4941330.2999   1  27   0.0099   0.0099   0.0100   0.0000   0.0000   0.0000   0.00    0.0
2021/06/01 04:19:18.000  -1641789.5020  -3663043.8228   4941330.2898   1  27   0.0099   0.0099   0.0100   0.0000   0.0000   0.0000   0.00    0.0
2021/06/01 04:19:19.000  -1641789.5046  -3663043.8115   4941330.2960   1  27   0.0099   0.0099   0.0100   0.0000   0.0000   0.0000   0.00    0.0
2021/06/01 04:19:20.000  -1641789.5054  -3663043.8132   4941330.2984   1  27   0.0099   0.0099   0.0100   0.0000   0.0000   0.0000   0.00    0.0
2021/06/01 04:19:21.000  -1641789.5005  -3663043.8195   4941330.3030   1  27   0.0099   0.0099   0.0100   0.0000   0.0000   0.0000   0.00    0.0
2021/06/01 04:19:22.000  -1641789.5018  -3663043.8224   4941330.3069   1  27   0.0099   0.0099   0.0100   0.0000   0.0000   0.0000   0.00    0.0
2021/06/01 04:19:23.000  -1641789.4908  -3663043.8151   4941330.3108   1  27   0.0099   0.0099   0.0100   0.0000   0.0000   0.0000   0.00    0.0
2021/06/01 04:19:24.000  -1641789.4983  -3663043.8145   4941330.3139   1  27   0.0099   0.0099   0.0100   0.0000   0.0000   0.0000   0.00    0.0
2021/06/01 04:19:25.000  -1641789.5010  -3663043.8207   4941330.3046   1  27   0.0099   0.0099   0.0100   0.0000   0.0000   0.0000   0.00    0.0
2021/06/01 04:19:26.000  -1641789.5008  -3663043.8201   4941330.3038   1  27   0.0099   0.0099   0.0100   0.0000   0.0000   0.0000   0.00    0.0
2021/06/01 04:19:27.000  -1641789.5021  -3663043.8230   4941330.3077   1  27   0.0099   0.0099   0.0100   0.0000   0.0000   0.0000   0.00    0.0
2021/06/01 04:19:28.000  -1641789.5010  -3663043.8207   4941330.3046   1  27   0.0099   0.0099   0.0100   0.0000   0.0000   0.0000   0.00    0.0
2021/06/01 04:19:29.000  -1641789.5064  -3663043.8155   4941330.3015   1  27   0.0099   0.0099   0.0100   0.0000   0.0000   0.0000   0.00    0.0
2021/06/01 04:19:30.000  -1641789.5008  -3663043.8201   4941330.3038   1  27   0.0099   0.0099   0.0100   0.0000   0.0000   0.0000   0.00    0.0
2021/06/01 04:19:31.000  -1641789.5008  -3663043.8201   4941330.3038   1  27   0.0099   0.0099   0.0100   0.0000   0.0000   0.0000   0.00    0.0
2021/06/01 04:19:32.000  -1641789.5008  -3663043.8201   4941330.3038   1  27   0.0099   0.0099   0.0100   0.0000   0.0000   0.0000   0.00    0.0
2021/06/01 04:19:33.000  -1641789.5010  -3663043.8207   4941330.3046   1  27   0.0099   0.0099   0.0100   0.0000   0.0000   0.0000   0.00    0.0
2021/06/01 04:19:34.000  -1641789.5013  -3663043.8212   4941330.3054   1  27   0.0099   0.0099   0.0100   0.0000   0.0000   0.0000   0.00    0.0
2021/06/01 04:19:35.000  -1641789.5072  -3663043.8172   4941330.3038   1  27   0.0099   0.0099   0.0100   0.0000   0.0000   0.0000   0.00    0.0
2021/06/01 04:19:36.000  -1641789.5072  -3663043.8172   4941330.3038   1  27   0.0099   0.0099   0.0100   0.0000   0.0000   0.0000   0.00    0.0
2021/06/01 04:19:37.000  -1641789.5056  -3663043.8138   4941330.2991   1  27   0.0099   0.0099   0.0100   0.0000   0.0000   0.0000   0.00    0.0
2021/06/01 04:19:38.000  -1641789.5064  -3663043.8155   4941330.3015   1  27   0.0099   0.0099   0.0100   0.0000   0.0000   0.0000   0.00    0.0
2021/06/01 04:19:39.000  -1641789.5005  -3663043.8195   4941330.3030   1  27   0.0099   0.0099   0.0100   0.0000   0.0000   0.0000   0.00    0.0
2021/06/01 04:19:40.000  -1641789.5000  -3663043.8184   4941330.3015   1  27   0.0099   0.0099   0.0100   0.0000   0.0000   0.0000   0.00    0.0
2021/06/01 04:19:41.000  -1641789.5008  -3663043.8201   4941330.3038   1  27   0.0099   0.0099   0.0100   0.0000   0.0000   0.0000   0.00    0.0
2021/06/01 04:19:42.000  -1641789.5026  -3663043.8241   4941330.3092   1  27   0.0099   0.0099   0.0100   0.0000   0.0000   0.0000   0.00    0.0
2021/06/01 04:19:43.000  -1641789.5013  -3663043.8212   4941330.3054   1  27   0.0099   0.0099   0.0100   0.0000   0.0000   0.0000   0.00    0.0
2021/06/01 04:19:44.000  -1641789.5021  -3663043.8230   4941330.3077   1  27   0.0099   0.0099   0.0100   0.0000   0.0000   0.0000   0.00    0.0
2021/06/01 04:19:45.000  -1641789.5023  -3663043.8235   4941330.3085   1  27   0.0099   0.0099   0.0100   0.0000   0.0000   0.0000   0.00    0.0
2021/06/01 04:19:46.000  -1641789.5064  -3663043.8155   4941330.3015   1  27   0.0099   0.0099   0.0100   0.0000   0.0000   0.0000   0.00    0.0
2021/06/01 04:19:47.000  -1641789.5067  -3663043.8161   4941330.3022   1  27   0.0099   0.0099   0.0100   0.0000   0.0000   0.0000   0.00    0.0
2021/06/01 04:19:48.000  -1641789.5064  -3663043.8155   4941330.3015   1  27   0.0099   0.0099   0.0100   0.0000   0.0000   0.0000   0.00    0.0
2021/06/01 04:19:49.000  -1641789.5089  -3663043.8211   4941330.2914   1  27   0.0099   0.0099   0.0100   0.0000   0.0000   0.0000   0.00    0.0
2021/06/01 04:19:50.000  -1641789.5092  -3663043.8217   4941330.2921   1  27   0.0099   0.0099   0.0100   0.0000   0.0000   0.0000   0.00    0.0
2021/06/01 04:19:51.000  -1641789.5061  -3663043.8149   4941330.3007   1  27   0.0099   0.0099   0.0100   0.0000   0.0000   0.0000   0.00    0.0
2021/06/01 04:19:52.000  -1641789.5074  -3663043.8178   4941330.3046   1  27   0.0099   0.0099   0.0100   0.0000   0.0000   0.0000   0.00    0.0
2021/06/01 04:19:53.000  -1641789.5010  -3663043.8207   4941330.3046   1  27   0.0099   0.0099   0.0100   0.0000   0.0000   0.0000   0.00    0.0
2021/06/01 04:19:54.000  -1641789.5021  -3663043.8230   4941330.3077   1  27   0.0099   0.0099   0.0100   0.0000   0.0000   0.0000   0.00    0.0
2021/06/01 04:19:55.000  -1641789.5018  -3663043.8224   4941330.3069   1  27   0.0099   0.0099   0.0100   0.0000   0.0000   0.0000   0.00    0.0
2021/06/01 04:19:56.000  -1641789.5023  -3663043.8235   4941330.3085   1  27   0.0099   0.0099   0.0100   0.0000   0.0000   0.0000   0.00    0.0
2021/06/01 04:19:57.000  -1641789.5015  -3663043.8218   4941330.3061   1  28   0.0099   0.0099   0.0100   0.0000   0.0000   0.0000   0.00    0.0
2021/06/01 04:19:58.000  -1641789.5003  -3663043.8189   4941330.3022   1  28   0.0099   0.0099   0.0100   0.0000   0.0000   0.0000   0.00    0.0
2021/06/01 04:19:59.000  -1641789.5021  -3663043.8230   4941330.3077   1  28   0.0099   0.0099   0.0100   0.0000   0.0000   0.0000   0.00    0.0
2021/06/01 04:20:00.000  -1641789.5000  -3663043.8184   4941330.3015   1  28   0.0099   0.0099   0.0100   0.0000   0.0000   0.0000   0.00    0.0
2021/06/01 04:20:01.000  -1641789.5015  -3663043.8218   4941330.3061   1  28   0.0099   0.0099   0.0100   0.0000   0.0000   0.0000   0.00    0.0
2021/06/01 04:20:02.000  -1641789.5061  -3663043.8149   4941330.3007   1  28   0.0099   0.0099   0.0100   0.0000   0.0000   0.0000   0.00    0.0
2021/06/01 04:20:03.000  -1641789.5072  -3663043.8172   4941330.3038   1  28   0.0099   0.0099   0.0100   0.0000   0.0000   0.0000   0.00    0.0
2021/06/01 04:20:04.000  -1641789.5000  -3663043.8184   4941330.3015   1  28   0.0099   0.0099   0.0100   0.0000   0.0000   0.0000   0.00    0.0
2021/06/01 04:20:05.000  -1641789.5018  -3663043.8224   4941330.3069   1  28   0.0099   0.0099   0.0100   0.0000   0.0000   0.0000   0.00    0.0
2021/06/01 04:20:06.000  -1641789.5035  -3663043.8263   4941330.2945   1  28   0.0099   0.0099   0.0100   0.0000   0.0000   0.0000   0.00    0.0
2021/06/01 04:20:07.000  -1641789.4992  -3663043.8167   4941330.2991   1  28   0.0099   0.0099   0.0100   0.0000   0.0000   0.0000   0.00    0.0
2021/06/01 04:20:08.000  -1641789.5030  -3663043.8251   4941330.2929   1  28   0.0099   0.0099   0.0100   0.0000   0.0000   0.0000   0.00    0.0
2021/06/01 04:20:09.000  -1641789.5005  -3663043.8195   4941330.3030   1  28   0.0099   0.0099   0.0100   0.0000   0.0000   0.0000   0.00    0.0
2021/06/01 04:20:10.000  -1641789.5013  -3663043.8212   4941330.3054   1  28   0.0099   0.0099   0.0100   0.0000   0.0000   0.0000   0.00    0.0
2021/06/01 04:20:11.000  -1641789.5018  -3663043.8224   4941330.3069   1  28   0.0099   0.0099   0.0100   0.0000   0.0000   0.0000   0.00    0.0
2021/06/01 04:20:12.000  -1641789.5013  -3663043.8212   4941330.3054   1  28   0.0099   0.0099   0.0100   0.0000   0.0000   0.0000   0.00    0.0
2021/06/01 04:20:13.000  -1641789.5005  -3663043.8195   4941330.3030   1  28   0.0099   0.0099   0.0100   0.0000   0.0000   0.0000   0.00    0.0
2021/06/01 04:20:14.000  -1641789.5000  -3663043.8184   4941330.3015   1  28   0.0099   0.0099   0.0100   0.0000   0.0000   0.0000   0.00    0.0
2021/06/01 04:20:15.000  -1641789.4997  -3663043.8178   4941330.3007   1  28   0.0099   0.0099   0.0100   0.0000   0.0000   0.0000   0.00    0.0
2021/06/01 04:20:16.000  -1641789.5008  -3663043.8201   4941330.3038   1  28   0.0099   0.0099   0.0100   0.0000   0.0000   0.0000   0.00    0.0
2021/06/01 04:20:17.000  -1641789.5003  -3663043.8189   4941330.3022   1  28   0.0099   0.0099   0.0100   0.0000   0.0000   0.0000   0.00    0.0
2021/06/01 04:20:18.000  -1641789.4944  -3663043.8230   4941330.3038   1  28   0.0099   0.0099   0.0100   0.0000   0.0000   0.0000   0.00    0.0
2021/06/01 04:20:19.000  -1641789.5015  -3663043.8218   4941330.3061   1  28   0.0099   0.0099   0.0100   0.0000   0.0000   0.0000   0.00    0.0
2021/06/01 04:20:20.000  -1641789.4997  -3663043.8178   4941330.3007   1  28   0.0099   0.0099   0.0100   0.0000   0.0000   0.0000   0.00    0.0
2021/06/01 04:20:21.000  -1641789.5005  -3663043.8195   4941330.3030   1  28   0.0099   0.0099   0.0100   0.0000   0.0000   0.0000   0.00    0.0
2021/06/01 04:20:22.000  -1641789.5010  -3663043.8207   4941330.3046   1  28   0.0099   0.0099   0.0100   0.0000   0.0000   0.0000   0.00    0.0
2021/06/01 04:20:23.000  -1641789.5067  -3663043.8161   4941330.3022   1  28   0.0099   0.0099   0.0100   0.0000   0.0000   0.0000   0.00    0.0
2021/06/01 04:20:24.000  -1641789.5000  -3663043.8184   4941330.3015   1  28   0.0099   0.0099   0.0100   0.0000   0.0000   0.0000   0.00    0.0
2021/06/01 04:20:25.000  -1641789.5015  -3663043.8218   4941330.3061   1  28   0.0099   0.0099   0.0100   0.0000   0.0000   0.0000   0.00    0.0
2021/06/01 04:20:26.000  -1641789.5018  -3663043.8224   4941330.3069   1  28   0.0099   0.0099   0.0100   0.0000   0.0000   0.0000   0.00    0.0
2021/06/01 04:20:27.000  -1641789.4964  -3663043.8275   4941330.3100   1  28   0.0099   0.0099   0.0100   0.0000   0.0000   0.0000   0.00    0.0
2021/06/01 04:20:28.000  -1641789.4926  -3663043.8191   4941330.3162   1  28   0.0099   0.0099   0.0100   0.0000   0.0000   0.0000   0.00    0.0
2021/06/01 04:20:29.000  -1641789.4954  -3663043.8253   4941330.3069   1  27   0.0099   0.0099   0.0100   0.0000   0.0000   0.0000   0.00    0.0
2021/06/01 04:20:30.000  -1641789.5018  -3663043.8224   4941330.3069   1  27   0.0099   0.0099   0.0100   0.0000   0.0000   0.0000   0.00    0.0
2021/06/01 04:20:31.000  -1641789.5005  -3663043.8195   4941330.3030   1  27   0.0099   0.0099   0.0100   0.0000   0.0000   0.0000   0.00    0.0
2021/06/01 04:20:32.000  -1641789.4995  -3663043.8172   4941330.2999   1  27   0.0099   0.0099   0.0100   0.0000   0.0000   0.0000   0.00    0.0
2021/06/01 04:20:33.000  -1641789.4949  -3663043.8241   4941330.3054   1  28   0.0099   0.0099   0.0100   0.0000   0.0000   0.0000   0.00    0.0
2021/06/01 04:20:34.000  -1641789.5000  -3663043.8184   4941330.3015   1  28   0.0099   0.0099   0.0100   0.0000   0.0000   0.0000   0.00    0.0
2021/06/01 04:20:35.000  -1641789.5000  -3663043.8184   4941330.3015   1  28   0.0099   0.0099   0.0100   0.0000   0.0000   0.0000   0.00    0.0
2021/06/01 04:20:36.000  -1641789.4995  -3663043.8172   4941330.2999   1  28   0.0099   0.0099   0.0100   0.0000   0.0000   0.0000   0.00    0.0
2021/06/01 04:20:37.000  -1641789.5015  -3663043.8218   4941330.3061   1  28   0.0099   0.0099   0.0100   0.0000   0.0000   0.0000   0.00    0.0
2021/06/01 04:20:38.000  -1641789.5015  -3663043.8218   4941330.3061   1  28   0.0099   0.0099   0.0100   0.0000   0.0000   0.0000   0.00    0.0
2021/06/01 04:20:39.000  -1641789.4959  -3663043.8264   4941330.3085   1  27   0.0099   0.0099   0.0100   0.0000   0.0000   0.0000   0.00    0.0
2021/06/01 04:20:40.000  -1641789.4952  -3663043.8247   4941330.3061   1  27   0.0099   0.0099   0.0100   0.0000   0.0000   0.0000   0.00    0.0
2021/06/01 04:20:41.000  -1641789.5015  -3663043.8218   4941330.3061   1  27   0.0099   0.0099   0.0100   0.0000   0.0000   0.0000   0.00    0.0
2021/06/01 04:20:42.000  -1641789.4954  -3663043.8253   4941330.3069   1  27   0.0099   0.0099   0.0100   0.0000   0.0000   0.0000   0.00    0.0
2021/06/01 04:20:43.000  -1641789.4992  -3663043.8167   4941330.2991   1  27   0.0099   0.0099   0.0100   0.0000   0.0000   0.0000   0.00    0.0
2021/06/01 04:20:44.000  -1641789.5048  -3663043.8291   4941330.2984   1  27   0.0099   0.0099   0.0100   0.0000   0.0000   0.0000   0.00    0.0
2021/06/01 04:20:45.000  -1641789.5059  -3663043.8314   4941330.3015   1  27   0.0099   0.0099   0.0100   0.0000   0.0000   0.0000   0.00    0.0
2021/06/01 04:20:46.000  -1641789.5008  -3663043.8201   4941330.3038   1  27   0.0099   0.0099   0.0100   0.0000   0.0000   0.0000   0.00    0.0
2021/06/01 04:20:47.000  -1641789.5010  -3663043.8207   4941330.3046   1  27   0.0099   0.0099   0.0100   0.0000   0.0000   0.0000   0.00    0.0
2021/06/01 04:20:48.000  -1641789.5003  -3663043.8189   4941330.3022   1  27   0.0099   0.0099   0.0100   0.0000   0.0000   0.0000   0.00    0.0
2021/06/01 04:20:49.000  -1641789.4987  -3663043.8155   4941330.2976   1  27   0.0099   0.0099   0.0100   0.0000   0.0000   0.0000   0.00    0.0
2021/06/01 04:20:50.000  -1641789.5010  -3663043.8207   4941330.3046   1  27   0.0099   0.0099   0.0100   0.0000   0.0000   0.0000   0.00    0.0
2021/06/01 04:20:51.000  -1641789.4997  -3663043.8178   4941330.3007   1  27   0.0099   0.0099   0.0100   0.0000   0.0000   0.0000   0.00    0.0
2021/06/01 04:20:52.000  -1641789.4992  -3663043.8167   4941330.2991   1  27   0.0099   0.0099   0.0100   0.0000   0.0000   0.0000   0.00    0.0
2021/06/01 04:20:53.000  -1641789.5018  -3663043.8224   4941330.3069   1  27   0.0099   0.0099   0.0100   0.0000   0.0000   0.0000   0.00    0.0
2021/06/01 04:20:54.000  -1641789.5000  -3663043.8184   4941330.3015   1  27   0.0099   0.0099   0.0100   0.0000   0.0000   0.0000   0.00    0.0
2021/06/01 04:20:55.000  -1641789.4995  -3663043.8172   4941330.2999   1  27   0.0099   0.0099   0.0100   0.0000   0.0000   0.0000   0.00    0.0
2021/06/01 04:20:56.000  -1641789.5003  -3663043.8189   4941330.3022   1  27   0.0099   0.0099   0.0100   0.0000   0.0000   0.0000   0.00    0.0
2021/06/01 04:20:57.000  -1641789.5008  -3663043.8201   4941330.3038   1  27   0.0099   0.0099   0.0100   0.0000   0.0000   0.0000   0.00    0.0
2021/06/01 04:20:58.000  -1641789.5000  -3663043.8184   4941330.3015   1  27   0.0099   0.0099   0.0100   0.0000   0.0000   0.0000   0.00    0.0
2021/06/01 04:20:59.000  -1641789.5000  -3663043.8184   4941330.3015   1  27   0.0099   0.0099   0.0100   0.0000   0.0000   0.0000   0.00    0.0
2021/06/01 04:21:00.000  -1641789.5008  -3663043.8201   4941330.3038   1  27   0.0099   0.0099   0.0100   0.0000   0.0000   0.0000   0.00    0.0
2021/06/01 04:21:01.000  -1641789.5003  -3663043.8189   4941330.3022   1  27   0.0099   0.0099   0.0100   0.0000   0.0000   0.0000   0.00    0.0
2021/06/01 04:21:02.000  -1641789.4990  -3663043.8161   4941330.2984   1  27   0.0099   0.0099   0.0100   0.0000   0.0000   0.0000   0.00    0.0
2021/06/01 04:21:03.000  -1641789.5069  -3663043.8167   4941330.3030   1  27   0.0099   0.0099   0.0100   0.0000   0.0000   0.0000   0.00    0.0
2021/06/01 04:21:04.000  -1641789.5054  -3663043.8132   4941330.2984   1  27   0.0099   0.0099   0.0100   0.0000   0.0000   0.0000   0.00    0.0
2021/06/01 04:21:05.000  -1641789.5005  -3663043.8195   4941330.3030   1  27   0.0099   0.0099   0.0100   0.0000   0.0000   0.0000   0.00    0.0
2021/06/01 04:21:06.000  -1641789.5069  -3663043.8167   4941330.3030   1  27   0.0099   0.0099   0.0100   0.0000   0.0000   0.0000   0.00    0.0
2021/06/01 04:21:07.000  -1641789.5064  -3663043.8155   4941330.3015   1  27   0.0099   0.0099   0.0100   0.0000   0.0000   0.0000   0.00    0.0
2021/06/01 04:21:08.000  -1641789.5015  -3663043.8218   4941330.3061   1  27   0.0099   0.0099   0.0100   0.0000   0.0000   0.0000   0.00    0.0
2021/06/01 04:21:09.000  -1641789.5072  -3663043.8172   4941330.3038   1  27   0.0099   0.0099   0.0100   0.0000   0.0000   0.0000   0.00    0.0
2021/06/01 04:21:10.000  -1641789.5000  -3663043.8184   4941330.3015   1  27   0.0099   0.0099   0.0100   0.0000   0.0000   0.0000   0.00    0.0
2021/06/01 04:21:11.000  -1641789.5074  -3663043.8178   4941330.3046   1  27   0.0099   0.0099   0.0100   0.0000   0.0000   0.0000   0.00    0.0
2021/06/01 04:21:12.000  -1641789.5010  -3663043.8207   4941330.3046   1  27   0.0099   0.0099   0.0100   0.0000   0.0000   0.0000   0.00    0.0
2021/06/01 04:21:13.000  -1641789.5064  -3663043.8155   4941330.3015   1  27   0.0099   0.0099   0.0100   0.0000   0.0000   0.0000   0.00    0.0
2021/06/01 04:21:14.000  -1641789.5067  -3663043.8161   4941330.3022   1  27   0.0099   0.0099   0.0100   0.0000   0.0000   0.0000   0.00    0.0
2021/06/01 04:21:15.000  -1641789.5064  -3663043.8155   4941330.3015   1  27   0.0099   0.0099   0.0100   0.0000   0.0000   0.0000   0.00    0.0
2021/06/01 04:21:16.000  -1641789.5054  -3663043.8132   4941330.2984   1  27   0.0099   0.0099   0.0100   0.0000   0.0000   0.0000   0.00    0.0
2021/06/01 04:21:17.000  -1641789.5064  -3663043.8155   4941330.3015   1  27   0.0099   0.0099   0.0100   0.0000   0.0000   0.0000   0.00    0.0
2021/06/01 04:21:18.000  -1641789.5033  -3663043.8257   4941330.2937   1  27   0.0099   0.0099   0.0100   0.0000   0.0000   0.0000   0.00    0.0
2021/06/01 04:21:19.000  -1641789.5041  -3663043.8274   4941330.2960   1  27   0.0099   0.0099   0.0100   0.0000   0.0000   0.0000   0.00    0.0
2021/06/01 04:21:20.000  -1641789.5033  -3663043.8257   4941330.2937   1  27   0.0099   0.0099   0.0100   0.0000   0.0000   0.0000   0.00    0.0
2021/06/01 04:21:21.000  -1641789.5008  -3663043.8201   4941330.3038   1  27   0.0099   0.0099   0.0100   0.0000   0.0000   0.0000   0.00    0.0
2021/06/01 04:21:22.000  -1641789.5005  -3663043.8195   4941330.3030   1  27   0.0099   0.0099   0.0100   0.0000   0.0000   0.0000   0.00    0.0
2021/06/01 04:21:23.000  -1641789.5003  -3663043.8189   4941330.3022   1  27   0.0099   0.0099   0.0100   0.0000   0.0000   0.0000   0.00    0.0
2021/06/01 04:21:24.000  -1641789.4997  -3663043.8178   4941330.3007   1  27   0.0099   0.0099   0.0100   0.0000   0.0000   0.0000   0.00    0.0
2021/06/01 04:21:25.000  -1641789.5003  -3663043.8189   4941330.3022   1  27   0.0099   0.0099   0.0100   0.0000   0.0000   0.0000   0.00    0.0
2021/06/01 04:21:26.000  -1641789.5018  -3663043.8224   4941330.3069   1  28   0.0099   0.0099   0.0100   0.0000   0.0000   0.0000   0.00    0.0
2021/06/01 04:21:27.000  -1641789.5015  -3663043.8218   4941330.3061   1  28   0.0099   0.0099   0.0100   0.0000   0.0000   0.0000   0.00    0.0
2021/06/01 04:21:28.000  -1641789.5008  -3663043.8201   4941330.3038   1  28   0.0099   0.0099   0.0100   0.0000   0.0000   0.0000   0.00    0.0
2021/06/01 04:21:29.000  -1641789.4997  -3663043.8178   4941330.3007   1  28   0.0099   0.0099   0.0100   0.0000   0.0000   0.0000   0.00    0.0
2021/06/01 04:21:30.000  -1641789.4987  -3663043.8155   4941330.2976   1  28   0.0099   0.0099   0.0100   0.0000   0.0000   0.0000   0.00    0.0
2021/06/01 04:21:31.000  -1641789.5008  -3663043.8201   4941330.3038   1  28   0.0099   0.0099   0.0100   0.0000   0.0000   0.0000   0.00    0.0
2021/06/01 04:21:32.000  -1641789.4997  -3663043.8178   4941330.3007   1  28   0.0099   0.0099   0.0100   0.0000   0.0000   0.0000   0.00    0.0
2021/06/01 04:21:33.000  -1641789.5003  -3663043.8189   4941330.3022   1  28   0.0099   0.0099   0.0100   0.0000   0.0000   0.0000   0.00    0.0
2021/06/01 04:21:34.000  -1641789.5003  -3663043.8189   4941330.3022   1  28   0.0099   0.0099   0.0100   0.0000   0.0000   0.0000   0.00    0.0
2021/06/01 04:21:35.000  -1641789.5015  -3663043.8218   4941330.3061   1  28   0.0099   0.0099   0.0100   0.0000   0.0000   0.0000   0.00    0.0
2021/06/01 04:21:36.000  -1641789.5008  -3663043.8201   4941330.3038   1  28   0.0099   0.0099   0.0100   0.0000   0.0000   0.0000   0.00    0.0
2021/06/01 04:21:37.000  -1641789.5025  -3663043.8240   4941330.2914   1  28   0.0099   0.0099   0.0100   0.0000   0.0000   0.0000   0.00    0.0
2021/06/01 04:21:38.000  -1641789.5005  -3663043.8195   4941330.3030   1  28   0.0099   0.0099   0.0100   0.0000   0.0000   0.0000   0.00    0.0
2021/06/01 04:21:39.000  -1641789.4982  -3663043.8144   4941330.2960   1  28   0.0099   0.0099   0.0100   0.0000   0.0000   0.0000   0.00    0.0
2021/06/01 04:21:40.000  -1641789.5033  -3663043.8257   4941330.2937   1  28   0.0099   0.0099   0.0100   0.0000   0.0000   0.0000   0.00    0.0
2021/06/01 04:21:41.000  -1641789.5092  -3663043.8217   4941330.2921   1  28   0.0099   0.0099   0.0100   0.0000   0.0000   0.0000   0.00    0.0
2021/06/01 04:21:42.000  -1641789.4997  -3663043.8178   4941330.3007   1  28   0.0099   0.0099   0.0100   0.0000   0.0000   0.0000   0.00    0.0
2021/06/01 04:21:43.000  -1641789.5025  -3663043.8240   4941330.2914   1  28   0.0099   0.0099   0.0100   0.0000   0.0000   0.0000   0.00    0.0
2021/06/01 04:21:44.000  -1641789.5033  -3663043.8257   4941330.2937   1  28   0.0099   0.0099   0.0100   0.0000   0.0000   0.0000   0.00    0.0
2021/06/01 04:21:45.000  -1641789.5005  -3663043.8195   4941330.3030   1  28   0.0099   0.0099   0.0100   0.0000   0.0000   0.0000   0.00    0.0
2021/06/01 04:21:46.000  -1641789.5010  -3663043.8207   4941330.3046   1  28   0.0099   0.0099   0.0100   0.0000   0.0000   0.0000   0.00    0.0
2021/06/01 04:21:47.000  -1641789.5000  -3663043.8184   4941330.3015   1  28   0.0099   0.0099   0.0100   0.0000   0.0000   0.0000   0.00    0.0
2021/06/01 04:21:48.000  -1641789.4939  -3663043.8218   4941330.3022   1  28   0.0099   0.0099   0.0100   0.0000   0.0000   0.0000   0.00    0.0
2021/06/01 04:21:49.000  -1641789.4936  -3663043.8212   4941330.3015   1  28   0.0099   0.0099   0.0100   0.0000   0.0000   0.0000   0.00    0.0
2021/06/01 04:21:50.000  -1641789.4992  -3663043.8167   4941330.2991   1  28   0.0099   0.0099   0.0100   0.0000   0.0000   0.0000   0.00    0.0
2021/06/01 04:21:51.000  -1641789.4992  -3663043.8167   4941330.2991   1  28   0.0099   0.0099   0.0100   0.0000   0.0000   0.0000   0.00    0.0
2021/06/01 04:21:52.000  -1641789.5013  -3663043.8212   4941330.3054   1  28   0.0099   0.0099   0.0100   0.0000   0.0000   0.0000   0.00    0.0
2021/06/01 04:21:53.000  -1641789.5010  -3663043.8207   4941330.3046   1  28   0.0099   0.0099   0.0100   0.0000   0.0000   0.0000   0.00    0.0
2021/06/01 04:21:54.000  -1641789.5013  -3663043.8212   4941330.3054   1  28   0.0099   0.0099   0.0100   0.0000   0.0000   0.0000   0.00    0.0
2021/06/01 04:21:55.000  -1641789.4967  -3663043.8281   4941330.3108   1  28   0.0099   0.0099   0.0100   0.0000   0.0000   0.0000   0.00    0.0
2021/06/01 04:21:56.000  -1641789.5013  -3663043.8212   4941330.3054   1  28   0.0099   0.0099   0.0100   0.0000   0.0000   0.0000   0.00    0.0
2021/06/01 04:21:57.000  -1641789.4949  -3663043.8241   4941330.3054   1  28   0.0099   0.0099   0.0100   0.0000   0.0000   0.0000   0.00    0.0
2021/06/01 04:21:58.000  -1641789.5015  -3663043.8218   4941330.3061   1  28   0.0099   0.0099   0.0100   0.0000   0.0000   0.0000   0.00    0.0
2021/06/01 04:21:59.000  -1641789.5015  -3663043.8218   4941330.3061   1  28   0.0099   0.0099   0.0100   0.0000   0.0000   0.0000   0.00    0.0
2021/06/01 04:22:00.000  -1641789.5010  -3663043.8207   4941330.3046   1  28   0.0099   0.0099   0.0100   0.0000   0.0000   0.0000   0.00    0.0
2021/06/01 04:22:01.000  -1641789.5000  -3663043.8184   4941330.3015   1  28   0.0099   0.0099   0.0100   0.0000   0.0000   0.0000   0.00    0.0
2021/06/01 04:22:02.000  -1641789.5010  -3663043.8207   4941330.3046   1  28   0.0099   0.0099   0.0100   0.0000   0.0000   0.0000   0.00    0.0
2021/06/01 04:22:03.000  -1641789.5008  -3663043.8201   4941330.3038   1  28   0.0099   0.0099   0.0100   0.0000   0.0000   0.0000   0.00    0.0
2021/06/01 04:22:04.000  -1641789.5003  -3663043.8189   4941330.3022   1  28   0.0099   0.0099   0.0100   0.0000   0.0000   0.0000   0.00    0.0
2021/06/01 04:22:05.000  -1641789.4997  -3663043.8178   4941330.3007   1  28   0.0099   0.0099   0.0100   0.0000   0.0000   0.0000   0.00    0.0
2021/06/01 04:22:06.000  -1641789.5000  -3663043.8184   4941330.3015   1  28   0.0099   0.0099   0.0100   0.0000   0.0000   0.0000   0.00    0.0
2021/06/01 04:22:07.000  -1641789.5079  -3663043.8189   4941330.3061   1  28   0.0099   0.0099   0.0100   0.0000   0.0000   0.0000   0.00    0.0
2021/06/01 04:22:08.000  -1641789.5015  -3663043.8218   4941330.3061   1  28   0.0099   0.0099   0.0100   0.0000   0.0000   0.0000   0.00    0.0
2021/06/01 04:22:09.000  -1641789.5018  -3663043.8224   4941330.3069   1  28   0.0099   0.0099   0.0100   0.0000   0.0000   0.0000   0.00    0.0
2021/06/01 04:22:10.000  -1641789.5026  -3663043.8241   4941330.3092   1  28   0.0099   0.0099   0.0100   0.0000   0.0000   0.0000   0.00    0.0
2021/06/01 04:22:11.000  -1641789.5013  -3663043.8212   4941330.3054   1  28   0.0099   0.0099   0.0100   0.0000   0.0000   0.0000   0.00    0.0
2021/06/01 04:22:12.000  -1641789.4995  -3663043.8172   4941330.2999   1  28   0.0099   0.0099   0.0100   0.0000   0.0000   0.0000   0.00    0.0
2021/06/01 04:22:13.000  -1641789.4995  -3663043.8172   4941330.2999   1  28   0.0099   0.0099   0.0100   0.0000   0.0000   0.0000   0.00    0.0
2021/06/01 04:22:14.000  -1641789.5081  -3663043.8194   4941330.2890   1  28   0.0099   0.0099   0.0100   0.0000   0.0000   0.0000   0.00    0.0
2021/06/01 04:22:15.000  -1641789.5056  -3663043.8138   4941330.2991   1  28   0.0099   0.0099   0.0100   0.0000   0.0000   0.0000   0.00    0.0
2021/06/01 04:22:16.000  -1641789.5030  -3663043.8251   4941330.2929   1  28   0.0099   0.0099   0.0100   0.0000   0.0000   0.0000   0.00    0.0
2021/06/01 04:22:17.000  -1641789.4992  -3663043.8167   4941330.2991   1  28   0.0099   0.0099   0.0100   0.0000   0.0000   0.0000   0.00    0.0
2021/06/01 04:22:18.000  -1641789.4985  -3663043.8149   4941330.2968   1  28   0.0099   0.0099   0.0100   0.0000   0.0000   0.0000   0.00    0.0
2021/06/01 04:22:19.000  -1641789.5005  -3663043.8195   4941330.3030   1  28   0.0099   0.0099   0.0100   0.0000   0.0000   0.0000   0.00    0.0
2021/06/01 04:22:20.000  -1641789.5008  -3663043.8201   4941330.3038   1  28   0.0099   0.0099   0.0100   0.0000   0.0000   0.0000   0.00    0.0
2021/06/01 04:22:21.000  -1641789.4990  -3663043.8161   4941330.2984   1  28   0.0099   0.0099   0.0100   0.0000   0.0000   0.0000   0.00    0.0
2021/06/01 04:22:22.000  -1641789.5000  -3663043.8184   4941330.3015   1  28   0.0099   0.0099   0.0100   0.0000   0.0000   0.0000   0.00    0.0
2021/06/01 04:22:23.000  -1641789.5005  -3663043.8195   4941330.3030   1  27   0.0099   0.0099   0.0100   0.0000   0.0000   0.0000   0.00    0.0
2021/06/01 04:22:24.000  -1641789.4995  -3663043.8172   4941330.2999   1  27   0.0099   0.0099   0.0100   0.0000   0.0000   0.0000   0.00    0.0
2021/06/01 04:22:25.000  -1641789.4977  -3663043.8132   4941330.2945   1  27   0.0099   0.0099   0.0100   0.0000   0.0000   0.0000   0.00    0.0
2021/06/01 04:22:26.000  -1641789.5028  -3663043.8246   4941330.2921   1  27   0.0099   0.0099   0.0100   0.0000   0.0000   0.0000   0.00    0.0
2021/06/01 04:22:27.000  -1641789.4995  -3663043.8172   4941330.2999   1  27   0.0099   0.0099   0.0100   0.0000   0.0000   0.0000   0.00    0.0
2021/06/01 04:22:28.000  -1641789.5000  -3663043.8184   4941330.3015   1  27   0.0099   0.0099   0.0100   0.0000   0.0000   0.0000   0.00    0.0
2021/06/01 04:22:29.000  -1641789.5000  -3663043.8184   4941330.3015   1  27   0.0099   0.0099   0.0100   0.0000   0.0000   0.0000   0.00    0.0
2021/06/01 04:22:30.000  -1641789.5041  -3663043.8274   4941330.2960   1  27   0.0099   0.0099   0.0100   0.0000   0.0000   0.0000   0.00    0.0
2021/06/01 04:22:31.000  -1641789.5012  -3663043.8211   4941330.2875   1  27   0.0099   0.0099   0.0100   0.0000   0.0000   0.0000   0.00    0.0
2021/06/01 04:22:32.000  -1641789.5030  -3663043.8251   4941330.2929   1  27   0.0099   0.0099   0.0100   0.0000   0.0000   0.0000   0.00    0.0
2021/06/01 04:22:33.000  -1641789.5028  -3663043.8246   4941330.2921   1  27   0.0099   0.0099   0.0100   0.0000   0.0000   0.0000   0.00    0.0
2021/06/01 04:22:34.000  -1641789.4992  -3663043.8167   4941330.2991   1  27   0.0099   0.0099   0.0100   0.0000   0.0000   0.0000   0.00    0.0
2021/06/01 04:22:35.000  -1641789.4944  -3663043.8230   4941330.3038   1  27   0.0099   0.0099   0.0100   0.0000   0.0000   0.0000   0.00    0.0
2021/06/01 04:22:36.000  -1641789.5005  -3663043.8195   4941330.3030   1  27   0.0099   0.0099   0.0100   0.0000   0.0000   0.0000   0.00    0.0
2021/06/01 04:22:37.000  -1641789.4931  -3663043.8201   4941330.2999   1  27   0.0099   0.0099   0.0100   0.0000   0.0000   0.0000   0.00    0.0
2021/06/01 04:22:38.000  -1641789.4936  -3663043.8212   4941330.3015   1  27   0.0099   0.0099   0.0100   0.0000   0.0000   0.0000   0.00    0.0
2021/06/01 04:22:39.000  -1641789.5015  -3663043.8217   4941330.2883   1  27   0.0099   0.0099   0.0100   0.0000   0.0000   0.0000   0.00    0.0
2021/06/01 04:22:40.000  -1641789.5028  -3663043.8246   4941330.2921   1  27   0.0099   0.0099   0.0100   0.0000   0.0000   0.0000   0.00    0.0
2021/06/01 04:22:41.000  -1641789.5107  -3663043.8251   4941330.2968   1  27   0.0099   0.0099   0.0100   0.0000   0.0000   0.0000   0.00    0.0
2021/06/01 04:22:42.000  -1641789.5028  -3663043.8246   4941330.2921   1  27   0.0099   0.0099   0.0100   0.0000   0.0000   0.0000   0.00    0.0
2021/06/01 04:22:43.000  -1641789.5035  -3663043.8263   4941330.2945   1  27   0.0099   0.0099   0.0100   0.0000   0.0000   0.0000   0.00    0.0
2021/06/01 04:22:44.000  -1641789.5025  -3663043.8240   4941330.2914   1  27   0.0099   0.0099   0.0100   0.0000   0.0000   0.0000   0.00    0.0
2021/06/01 04:22:45.000  -1641789.5087  -3663043.8205   4941330.2906   1  27   0.0099   0.0099   0.0100   0.0000   0.0000   0.0000   0.00    0.0
2021/06/01 04:22:46.000  -1641789.5043  -3663043.8280   4941330.2968   1  27   0.0099   0.0099   0.0100   0.0000   0.0000   0.0000   0.00    0.0
2021/06/01 04:22:47.000  -1641789.5005  -3663043.8195   4941330.3030   1  27   0.0099   0.0099   0.0100   0.0000   0.0000   0.0000   0.00    0.0
2021/06/01 04:22:48.000  -1641789.5000  -3663043.8184   4941330.3015   1  27   0.0099   0.0099   0.0100   0.0000   0.0000   0.0000   0.00    0.0
2021/06/01 04:22:49.000  -1641789.4941  -3663043.8224   4941330.3030   1  27   0.0099   0.0099   0.0100   0.0000   0.0000   0.0000   0.00    0.0
2021/06/01 04:22:50.000  -1641789.5015  -3663043.8218   4941330.3061   1  27   0.0099   0.0099   0.0100   0.0000   0.0000   0.0000   0.00    0.0
2021/06/01 04:22:51.000  -1641789.5003  -3663043.8189   4941330.3022   1  27   0.0099   0.0099   0.0100   0.0000   0.0000   0.0000   0.00    0.0
2021/06/01 04:22:52.000  -1641789.5030  -3663043.8251   4941330.2929   1  27   0.0099   0.0099   0.0100   0.0000   0.0000   0.0000   0.00    0.0
2021/06/01 04:22:53.000  -1641789.5079  -3663043.8188   4941330.2883   1  27   0.0099   0.0099   0.0100   0.0000   0.0000   0.0000   0.00    0.0
2021/06/01 04:22:54.000  -1641789.5081  -3663043.8194   4941330.2890   1  27   0.0099   0.0099   0.0100   0.0000   0.0000   0.0000   0.00    0.0
2021/06/01 04:22:55.000  -1641789.5020  -3663043.8228   4941330.2898   1  27   0.0099   0.0099   0.0100   0.0000   0.0000   0.0000   0.00    0.0
2021/06/01 04:22:56.000  -1641789.5020  -3663043.8228   4941330.2898   1  27   0.0099   0.0099   0.0100   0.0000   0.0000   0.0000   0.00    0.0
2021/06/01 04:22:57.000  -1641789.5048  -3663043.8291   4941330.2984   1  27   0.0099   0.0099   0.0100   0.0000   0.0000   0.0000   0.00    0.0
2021/06/01 04:22:58.000  -1641789.4946  -3663043.8235   4941330.3046   1  27   0.0099   0.0099   0.0100   0.0000   0.0000   0.0000   0.00    0.0
2021/06/01 04:22:59.000  -1641789.4975  -3663043.8298   4941330.3131   1  27   0.0099   0.0099   0.0100   0.0000   0.0000   0.0000   0.00    0.0
2021/06/01 04:23:00.000  -1641789.4941  -3663043.8224   4941330.3030   1  27   0.0099   0.0099   0.0100   0.0000   0.0000   0.0000   0.00    0.0
2021/06/01 04:23:01.000  -1641789.4957  -3663043.8258   4941330.3077   1  27   0.0099   0.0099   0.0100   0.0000   0.0000   0.0000   0.00    0.0
2021/06/01 04:23:02.000  -1641789.5013  -3663043.8212   4941330.3054   1  27   0.0099   0.0099   0.0100   0.0000   0.0000   0.0000   0.00    0.0
2021/06/01 04:23:03.000  -1641789.5038  -3663043.8269   4941330.2953   1  27   0.0099   0.0099   0.0100   0.0000   0.0000   0.0000   0.00    0.0
2021/06/01 04:23:04.000  -1641789.5025  -3663043.8240   4941330.2914   1  27   0.0099   0.0099   0.0100   0.0000   0.0000   0.0000   0.00    0.0
2021/06/01 04:23:05.000  -1641789.5003  -3663043.8189   4941330.3022   1  27   0.0099   0.0099   0.0100   0.0000   0.0000   0.0000   0.00    0.0
2021/06/01 04:23:06.000  -1641789.5038  -3663043.8269   4941330.2953   1  27   0.0099   0.0099   0.0100   0.0000   0.0000   0.0000   0.00    0.0
2021/06/01 04:23:07.000  -1641789.4992  -3663043.8167   4941330.2991   1  27   0.0099   0.0099   0.0100   0.0000   0.0000   0.0000   0.00    0.0
2021/06/01 04:23:08.000  -1641789.4997  -3663043.8178   4941330.3007   1  27   0.0099   0.0099   0.0100   0.0000   0.0000   0.0000   0.00    0.0
2021/06/01 04:23:09.000  -1641789.5008  -3663043.8201   4941330.3038   1  27   0.0099   0.0099   0.0100   0.0000   0.0000   0.0000   0.00    0.0
2021/06/01 04:23:10.000  -1641789.5023  -3663043.8235   4941330.3085   1  27   0.0099   0.0099   0.0100   0.0000   0.0000   0.0000   0.00    0.0
2021/06/01 04:23:11.000  -1641789.5000  -3663043.8184   4941330.3015   1  27   0.0099   0.0099   0.0100   0.0000   0.0000   0.0000   0.00    0.0
2021/06/01 04:23:12.000  -1641789.4995  -3663043.8172   4941330.2999   1  27   0.0099   0.0099   0.0100   0.0000   0.0000   0.0000   0.00    0.0
2021/06/01 04:23:13.000  -1641789.5023  -3663043.8235   4941330.3085   1  27   0.0099   0.0099   0.0100   0.0000   0.0000   0.0000   0.00    0.0
2021/06/01 04:23:14.000  -1641789.5000  -3663043.8184   4941330.3015   1  27   0.0099   0.0099   0.0100   0.0000   0.0000   0.0000   0.00    0.0
2021/06/01 04:23:15.000  -1641789.5028  -3663043.8246   4941330.2921   1  27   0.0099   0.0099   0.0100   0.0000   0.0000   0.0000   0.00    0.0
2021/06/01 04:23:16.000  -1641789.5059  -3663043.8144   4941330.2999   1  27   0.0099   0.0099   0.0100   0.0000   0.0000   0.0000   0.00    0.0
2021/06/01 04:23:17.000  -1641789.5010  -3663043.8207   4941330.3046   1  27   0.0099   0.0099   0.0100   0.0000   0.0000   0.0000   0.00    0.0
2021/06/01 04:23:18.000  -1641789.5067  -3663043.8161   4941330.3022   1  27   0.0099   0.0099   0.0100   0.0000   0.0000   0.0000   0.00    0.0
2021/06/01 04:23:19.000  -1641789.5013  -3663043.8212   4941330.3054   1  27   0.0099   0.0099   0.0100   0.0000   0.0000   0.0000   0.00    0.0
2021/06/01 04:23:20.000  -1641789.5023  -3663043.8235   4941330.3085   1  27   0.0099   0.0099   0.0100   0.0000   0.0000   0.0000   0.00    0.0
2021/06/01 04:23:21.000  -1641789.5003  -3663043.8189   4941330.3022   1  27   0.0099   0.0099   0.0100   0.0000   0.0000   0.0000   0.00    0.0
2021/06/01 04:23:22.000  -1641789.5018  -3663043.8224   4941330.3069   1  27   0.0099   0.0099   0.0100   0.0000   0.0000   0.0000   0.00    0.0
2021/06/01 04:23:23.000  -1641789.5046  -3663043.8286   4941330.2976   1  27   0.0099   0.0099   0.0100   0.0000   0.0000   0.0000   0.00    0.0
2021/06/01 04:23:24.000  -1641789.5021  -3663043.8230   4941330.3077   1  27   0.0099   0.0099   0.0100   0.0000   0.0000   0.0000   0.00    0.0
2021/06/01 04:23:25.000  -1641789.5018  -3663043.8224   4941330.3069   1  27   0.0099   0.0099   0.0100   0.0000   0.0000   0.0000   0.00    0.0
2021/06/01 04:23:26.000  -1641789.4964  -3663043.8275   4941330.3100   1  27   0.0099   0.0099   0.0100   0.0000   0.0000   0.0000   0.00    0.0
2021/06/01 04:23:27.000  -1641789.5026  -3663043.8241   4941330.3092   1  27   0.0099   0.0099   0.0100   0.0000   0.0000   0.0000   0.00    0.0
2021/06/01 04:23:28.000  -1641789.5013  -3663043.8212   4941330.3054   1  27   0.0099   0.0099   0.0100   0.0000   0.0000   0.0000   0.00    0.0
2021/06/01 04:23:29.000  -1641789.5041  -3663043.8274   4941330.2960   1  27   0.0099   0.0099   0.0100   0.0000   0.0000   0.0000   0.00    0.0
2021/06/01 04:23:30.000  -1641789.5053  -3663043.8303   4941330.2999   1  27   0.0099   0.0099   0.0100   0.0000   0.0000   0.0000   0.00    0.0
2021/06/01 04:23:31.000  -1641789.5094  -3663043.8223   4941330.2929   1  27   0.0099   0.0099   0.0100   0.0000   0.0000   0.0000   0.00    0.0
2021/06/01 04:23:32.000  -1641789.5094  -3663043.8223   4941330.2929   1  27   0.0099   0.0099   0.0100   0.0000   0.0000   0.0000   0.00    0.0
2021/06/01 04:23:33.000  -1641789.5084  -3663043.8200   4941330.2898   1  27   0.0099   0.0099   0.0100   0.0000   0.0000   0.0000   0.00    0.0
2021/06/01 04:23:34.000  -1641789.5087  -3663043.8205   4941330.2906   1  27   0.0099   0.0099   0.0100   0.0000   0.0000   0.0000   0.00    0.0
2021/06/01 04:23:35.000  -1641789.5097  -3663043.8228   4941330.2937   1  27   0.0099   0.0099   0.0100   0.0000   0.0000   0.0000   0.00    0.0
2021/06/01 04:23:36.000  -1641789.5094  -3663043.8223   4941330.2929   1  27   0.0099   0.0099   0.0100   0.0000   0.0000   0.0000   0.00    0.0
2021/06/01 04:23:37.000  -1641789.5056  -3663043.8309   4941330.3007   1  27   0.0099   0.0099   0.0100   0.0000   0.0000   0.0000   0.00    0.0
2021/06/01 04:23:38.000  -1641789.5028  -3663043.8247   4941330.3100   1  27   0.0099   0.0099   0.0100   0.0000   0.0000   0.0000   0.00    0.0
2021/06/01 04:23:39.000  -1641789.5049  -3663043.8293   4941330.3163   1  27   0.0099   0.0099   0.0100   0.0000   0.0000   0.0000   0.00    0.0
2021/06/01 04:23:40.000  -1641789.5054  -3663043.8304   4941330.3178   1  27   0.0099   0.0099   0.0100   0.0000   0.0000   0.0000   0.00    0.0
2021/06/01 04:23:41.000  -1641789.5028  -3663043.8247   4941330.3100   1  27   0.0099   0.0099   0.0100   0.0000   0.0000   0.0000   0.00    0.0
2021/06/01 04:23:42.000  -1641789.5141  -3663043.8326   4941330.3069   1  27   0.0099   0.0099   0.0100   0.0000   0.0000   0.0000   0.00    0.0
2021/06/01 04:23:43.000  -1641789.5105  -3663043.8246   4941330.2960   1  27   0.0099   0.0099   0.0100   0.0000   0.0000   0.0000   0.00    0.0
2021/06/01 04:23:44.000  -1641789.5179  -3663043.8240   4941330.2991   1  27   0.0099   0.0099   0.0100   0.0000   0.0000   0.0000   0.00    0.0
2021/06/01 04:23:45.000  -1641789.5212  -3663043.8313   4941330.2914   1  27   0.0099   0.0099   0.0100   0.0000   0.0000   0.0000   0.00    0.0
2021/06/01 04:23:46.000  -1641789.5115  -3663043.8269   4941330.2991   1  27   0.0099   0.0099   0.0100   0.0000   0.0000   0.0000   0.00    0.0
2021/06/01 04:23:47.000  -1641789.5120  -3663043.8280   4941330.3007   1  27   0.0099   0.0099   0.0100   0.0000   0.0000   0.0000   0.00    0.0
2021/06/01 04:23:48.000  -1641789.5071  -3663043.8343   4941330.3054   1  27   0.0099   0.0099   0.0100   0.0000   0.0000   0.0000   0.00    0.0
2021/06/01 04:23:49.000  -1641789.5089  -3663043.8383   4941330.3108   1  27   0.0099   0.0099   0.0100   0.0000   0.0000   0.0000   0.00    0.0
2021/06/01 04:23:50.000  -1641789.5069  -3663043.8338   4941330.3225   1  27   0.0099   0.0099   0.0100   0.0000   0.0000   0.0000   0.00    0.0
2021/06/01 04:23:51.000  -1641789.5089  -3663043.8383   4941330.3108   1  27   0.0099   0.0099   0.0100   0.0000   0.0000   0.0000   0.00    0.0
2021/06/01 04:23:52.000  -1641789.5151  -3663043.8349   4941330.3100   1  27   0.0099   0.0099   0.0100   0.0000   0.0000   0.0000   0.00    0.0
2021/06/01 04:23:53.000  -1641789.5143  -3663043.8332   4941330.3077   1  27   0.0099   0.0099   0.0100   0.0000   0.0000   0.0000   0.00    0.0
2021/06/01 04:23:54.000  -1641789.5133  -3663043.8309   4941330.3046   1  27   0.0099   0.0099   0.0100   0.0000   0.0000   0.0000   0.00    0.0
2021/06/01 04:23:55.000  -1641789.5123  -3663043.8286   4941330.3015   1  27   0.0099   0.0099   0.0100   0.0000   0.0000   0.0000   0.00    0.0
2021/06/01 04:23:56.000  -1641789.5166  -3663043.8382   4941330.2968   1  27   0.0099   0.0099   0.0100   0.0000   0.0000   0.0000   0.00    0.0
2021/06/01 04:23:57.000  -1641789.5181  -3663043.8416   4941330.3015   1  27   0.0099   0.0099   0.0100   0.0000   0.0000   0.0000   0.00    0.0
2021/06/01 04:23:58.000  -1641789.5176  -3663043.8405   4941330.2999   1  27   0.0099   0.0099   0.0100   0.0000   0.0000   0.0000   0.00    0.0
2021/06/01 04:23:59.000  -1641789.5176  -3663043.8405   4941330.2999   1  27   0.0099   0.0099   0.0100   0.0000   0.0000   0.0000   0.00    0.0
2021/06/01 04:24:00.000  -1641789.5151  -3663043.8349   4941330.3100   1  27   0.0099   0.0099   0.0100   0.0000   0.0000   0.0000   0.00    0.0
2021/06/01 04:24:01.000  -1641789.5166  -3663043.8383   4941330.3147   1  27   0.0099   0.0099   0.0100   0.0000   0.0000   0.0000   0.00    0.0
2021/06/01 04:24:02.000  -1641789.5209  -3663043.8479   4941330.3101   1  27   0.0099   0.0099   0.0100   0.0000   0.0000   0.0000   0.00    0.0
2021/06/01 04:24:03.000  -1641789.5182  -3663043.8418   4941330.3194   1  27   0.0099   0.0099   0.0100   0.0000   0.0000   0.0000   0.00    0.0
2021/06/01 04:24:04.000  -1641789.5179  -3663043.8412   4941330.3186   1  27   0.0099   0.0099   0.0100   0.0000   0.0000   0.0000   0.00    0.0
2021/06/01 04:24:05.000  -1641789.5209  -3663043.8479   4941330.3101   1  27   0.0099   0.0099   0.0100   0.0000   0.0000   0.0000   0.00    0.0
2021/06/01 04:24:06.000  -1641789.5204  -3663043.8468   4941330.3085   1  27   0.0099   0.0099   0.0100   0.0000   0.0000   0.0000   0.00    0.0
2021/06/01 04:24:07.000  -1641789.5271  -3663043.8445   4941330.3093   1  27   0.0099   0.0099   0.0100   0.0000   0.0000   0.0000   0.00    0.0
2021/06/01 04:24:08.000  -1641789.5199  -3663043.8456   4941330.3069   1  27   0.0099   0.0099   0.0100   0.0000   0.0000   0.0000   0.00    0.0
2021/06/01 04:24:09.000  -1641789.5204  -3663043.8468   4941330.3085   1  27   0.0099   0.0099   0.0100   0.0000   0.0000   0.0000   0.00    0.0
2021/06/01 04:24:10.000  -1641789.5179  -3663043.8412   4941330.3186   1  27   0.0099   0.0099   0.0100   0.0000   0.0000   0.0000   0.00    0.0
2021/06/01 04:24:11.000  -1641789.5192  -3663043.8440   4941330.3225   1  27   0.0099   0.0099   0.0100   0.0000   0.0000   0.0000   0.00    0.0
2021/06/01 04:24:12.000  -1641789.5182  -3663043.8418   4941330.3194   1  27   0.0099   0.0099   0.0100   0.0000   0.0000   0.0000   0.00    0.0
2021/06/01 04:24:13.000  -1641789.5182  -3663043.8418   4941330.3194   1  27   0.0099   0.0099   0.0100   0.0000   0.0000   0.0000   0.00    0.0
2021/06/01 04:24:14.000  -1641789.5187  -3663043.8429   4941330.3209   1  27   0.0099   0.0099   0.0100   0.0000   0.0000   0.0000   0.00    0.0
2021/06/01 04:24:15.000  -1641789.5200  -3663043.8458   4941330.3248   1  27   0.0099   0.0099   0.0100   0.0000   0.0000   0.0000   0.00    0.0
2021/06/01 04:24:16.000  -1641789.5187  -3663043.8429   4941330.3209   1  27   0.0099   0.0099   0.0100   0.0000   0.0000   0.0000   0.00    0.0
2021/06/01 04:24:17.000  -1641789.5171  -3663043.8395   4941330.3163   1  27   0.0099   0.0099   0.0100   0.0000   0.0000   0.0000   0.00    0.0
2021/06/01 04:24:18.000  -1641789.5153  -3663043.8354   4941330.3108   1  27   0.0099   0.0099   0.0100   0.0000   0.0000   0.0000   0.00    0.0
2021/06/01 04:24:19.000  -1641789.5146  -3663043.8337   4941330.3085   1  27   0.0099   0.0099   0.0100   0.0000   0.0000   0.0000   0.00    0.0
2021/06/01 04:24:20.000  -1641789.5125  -3663043.8291   4941330.3023   1  27   0.0099   0.0099   0.0100   0.0000   0.0000   0.0000   0.00    0.0
2021/06/01 04:24:21.000  -1641789.5181  -3663043.8416   4941330.3015   1  27   0.0099   0.0099   0.0100   0.0000   0.0000   0.0000   0.00    0.0
2021/06/01 04:24:22.000  -1641789.5173  -3663043.8399   4941330.2992   1  27   0.0099   0.0099   0.0100   0.0000   0.0000   0.0000   0.00    0.0
2021/06/01 04:24:23.000  -1641789.5143  -3663043.8332   4941330.3077   1  27   0.0099   0.0099   0.0100   0.0000   0.0000   0.0000   0.00    0.0
2021/06/01 04:24:24.000  -1641789.5087  -3663043.8377   4941330.3100   1  27   0.0099   0.0099   0.0100   0.0000   0.0000   0.0000   0.00    0.0
2021/06/01 04:24:25.000  -1641789.5146  -3663043.8337   4941330.3085   1  27   0.0099   0.0099   0.0100   0.0000   0.0000   0.0000   0.00    0.0
2021/06/01 04:24:26.000  -1641789.5189  -3663043.8433   4941330.3038   1  27   0.0099   0.0099   0.0100   0.0000   0.0000   0.0000   0.00    0.0
2021/06/01 04:24:27.000  -1641789.5092  -3663043.8389   4941330.3116   1  27   0.0099   0.0099   0.0100   0.0000   0.0000   0.0000   0.00    0.0
2021/06/01 04:24:28.000  -1641789.5102  -3663043.8412   4941330.3147   1  27   0.0099   0.0099   0.0100   0.0000   0.0000   0.0000   0.00    0.0
2021/06/01 04:24:29.000  -1641789.5127  -3663043.8468   4941330.3046   1  27   0.0099   0.0099   0.0100   0.0000   0.0000   0.0000   0.00    0.0
2021/06/01 04:24:30.000  -1641789.5074  -3663043.8349   4941330.3061   1  27   0.0099   0.0099   0.0100   0.0000   0.0000   0.0000   0.00    0.0
2021/06/01 04:24:31.000  -1641789.5143  -3663043.8332   4941330.3077   1  27   0.0099   0.0099   0.0100   0.0000   0.0000   0.0000   0.00    0.0
2021/06/01 04:24:32.000  -1641789.5082  -3663043.8366   4941330.3085   1  27   0.0099   0.0099   0.0100   0.0000   0.0000   0.0000   0.00    0.0
2021/06/01 04:24:33.000  -1641789.5092  -3663043.8389   4941330.3116   1  27   0.0099   0.0099   0.0100   0.0000   0.0000   0.0000   0.00    0.0
2021/06/01 04:24:34.000  -1641789.5077  -3663043.8354   4941330.3069   1  27   0.0099   0.0099   0.0100   0.0000   0.0000   0.0000   0.00    0.0
2021/06/01 04:24:35.000  -1641789.5077  -3663043.8354   4941330.3069   1  27   0.0099   0.0099   0.0100   0.0000   0.0000   0.0000   0.00    0.0
2021/06/01 04:24:36.000  -1641789.5133  -3663043.8309   4941330.3046   1  27   0.0099   0.0099   0.0100   0.0000   0.0000   0.0000   0.00    0.0
2021/06/01 04:24:37.000  -1641789.5117  -3663043.8274   4941330.2999   1  27   0.0099   0.0099   0.0100   0.0000   0.0000   0.0000   0.00    0.0
2021/06/01 04:24:38.000  -1641789.5155  -3663043.8359   4941330.2937   1  27   0.0099   0.0099   0.0100   0.0000   0.0000   0.0000   0.00    0.0
2021/06/01 04:24:39.000  -1641789.5061  -3663043.8320   4941330.3023   1  27   0.0099   0.0099   0.0100   0.0000   0.0000   0.0000   0.00    0.0
2021/06/01 04:24:40.000  -1641789.5128  -3663043.8297   4941330.3030   1  27   0.0099   0.0099   0.0100   0.0000   0.0000   0.0000   0.00    0.0
2021/06/01 04:24:41.000  -1641789.5074  -3663043.8349   4941330.3061   1  27   0.0099   0.0099   0.0100   0.0000   0.0000   0.0000   0.00    0.0
2021/06/01 04:24:42.000  -1641789.5066  -3663043.8332   4941330.3038   1  27   0.0099   0.0099   0.0100   0.0000   0.0000   0.0000   0.00    0.0
2021/06/01 04:24:43.000  -1641789.5077  -3663043.8354   4941330.3069   1  27   0.0099   0.0099   0.0100   0.0000   0.0000   0.0000   0.00    0.0
2021/06/01 04:24:44.000  -1641789.5069  -3663043.8337   4941330.3046   1  27   0.0099   0.0099   0.0100   0.0000   0.0000   0.0000   0.00    0.0
2021/06/01 04:24:45.000  -1641789.5071  -3663043.8343   4941330.3054   1  27   0.0099   0.0099   0.0100   0.0000   0.0000   0.0000   0.00    0.0
2021/06/01 04:24:46.000  -1641789.5071  -3663043.8343   4941330.3054   1  27   0.0099   0.0099   0.0100   0.0000   0.0000   0.0000   0.00    0.0
2021/06/01 04:24:47.000  -1641789.5069  -3663043.8337   4941330.3046   1  27   0.0099   0.0099   0.0100   0.0000   0.0000   0.0000   0.00    0.0
2021/06/01 04:24:48.000  -1641789.5064  -3663043.8326   4941330.3030   1  27   0.0099   0.0099   0.0100   0.0000   0.0000   0.0000   0.00    0.0
2021/06/01 04:24:49.000  -1641789.5082  -3663043.8366   4941330.3085   1  27   0.0099   0.0099   0.0100   0.0000   0.0000   0.0000   0.00    0.0
2021/06/01 04:24:50.000  -1641789.5097  -3663043.8400   4941330.3132   1  27   0.0099   0.0099   0.0100   0.0000   0.0000   0.0000   0.00    0.0
2021/06/01 04:24:51.000  -1641789.5023  -3663043.8407   4941330.3279   1  27   0.0099   0.0099   0.0100   0.0000   0.0000   0.0000   0.00    0.0
2021/06/01 04:24:52.000  -1641789.4998  -3663043.8350   4941330.3201   1  27   0.0099   0.0099   0.0100   0.0000   0.0000   0.0000   0.00    0.0
2021/06/01 04:24:53.000  -1641789.5031  -3663043.8423   4941330.3124   1  27   0.0099   0.0099   0.0100   0.0000   0.0000   0.0000   0.00    0.0
2021/06/01 04:24:54.000  -1641789.5000  -3663043.8356   4941330.3209   1  27   0.0099   0.0099   0.0100   0.0000   0.0000   0.0000   0.00    0.0
2021/06/01 04:24:55.000  -1641789.5059  -3663043.8316   4941330.3194   1  27   0.0099   0.0099   0.0100   0.0000   0.0000   0.0000   0.00    0.0
2021/06/01 04:24:56.000  -1641789.5064  -3663043.8327   4941330.3209   1  27   0.0099   0.0099   0.0100   0.0000   0.0000   0.0000   0.00    0.0
2021/06/01 04:24:57.000  -1641789.5097  -3663043.8400   4941330.3132   1  27   0.0099   0.0099   0.0100   0.0000   0.0000   0.0000   0.00    0.0
2021/06/01 04:24:58.000  -1641789.5092  -3663043.8389   4941330.3116   1  27   0.0099   0.0099   0.0100   0.0000   0.0000   0.0000   0.00    0.0
2021/06/01 04:24:59.000  -1641789.5061  -3663043.8320   4941330.3023   1  27   0.0099   0.0099   0.0100   0.0000   0.0000   0.0000   0.00    0.0
2021/06/01 04:25:00.000  -1641789.5130  -3663043.8303   4941330.3038   1  27   0.0099   0.0099   0.0100   0.0000   0.0000   0.0000   0.00    0.0
